[
  {
    "id": "38002406",
    "nom": "PRAPOUTEL",
    "posteOuvert": false,
    "typePoste": 4,
    "lon": 5.995667,
    "lat": 45.256167,
    "alt": 1355,
    "postePublic": true
  },
  {
    "id": "38002408",
    "nom": "PRAPOUTEL",
    "posteOuvert": true,
    "typePoste": 4,
    "lon": 6.016333,
    "lat": 45.253833,
    "alt": 1595,
    "postePublic": true
  },
  {
    "id": "38005402",
    "nom": "AIGLETON-NIVOSE",
    "posteOuvert": true,
    "typePoste": 3,
    "lon": 6.038167,
    "lat": 45.231,
    "alt": 2240,
    "postePublic": true
  },
  {
    "id": "38006400",
    "nom": "Le Collet d Allevard",
    "posteOuvert": true,
    "typePoste": 4,
    "lon": 6.123833,
    "lat": 45.3895,
    "alt": 1642,
    "postePublic": true
  },
  {
    "id": "38020400",
    "nom": "AURIS-EN-OISANS",
    "posteOuvert": true,
    "typePoste": 4,
    "lon": 6.076333,
    "lat": 45.057167,
    "alt": 1600,
    "postePublic": true
  },
  {
    "id": "38021001",
    "nom": "AUTRANS",
    "posteOuvert": true,
    "typePoste": 2,
    "lon": 5.552167,
    "lat": 45.182,
    "alt": 1069,
    "postePublic": true
  },
  {
    "id": "38021400",
    "nom": "AUTRANS-NIVO",
    "posteOuvert": false,
    "typePoste": 4,
    "lon": 5.581167,
    "lat": 45.227167,
    "alt": 1260,
    "postePublic": true
  },
  {
    "id": "38034001",
    "nom": "BEAUREPAIRE",
    "posteOuvert": true,
    "typePoste": 2,
    "lon": 5.0365,
    "lat": 45.350333,
    "alt": 288,
    "postePublic": true
  },
  {
    "id": "38046002",
    "nom": "COL DE ROSSATIERE",
    "posteOuvert": true,
    "typePoste": 1,
    "lon": 5.401,
    "lat": 45.4555,
    "alt": 568,
    "postePublic": true
  },
  {
    "id": "38053003",
    "nom": "BOURGOIN",
    "posteOuvert": true,
    "typePoste": 1,
    "lon": 5.309333,
    "lat": 45.608,
    "alt": 358,
    "postePublic": true
  },
  {
    "id": "38095001",
    "nom": "CHATTE_SAPC",
    "posteOuvert": true,
    "typePoste": 2,
    "lon": 5.306,
    "lat": 45.140167,
    "alt": 272,
    "postePublic": true
  },
  {
    "id": "38103002",
    "nom": "CHICHILIANNE_SAPC",
    "posteOuvert": true,
    "typePoste": 2,
    "lon": 5.580333,
    "lat": 44.810333,
    "alt": 984,
    "postePublic": true
  },
  {
    "id": "38133001",
    "nom": "COUBLEVIE",
    "posteOuvert": true,
    "typePoste": 1,
    "lon": 5.596333,
    "lat": 45.355333,
    "alt": 300,
    "postePublic": true
  },
  {
    "id": "38153001",
    "nom": "ENGINS",
    "posteOuvert": true,
    "typePoste": 2,
    "lon": 5.617167,
    "lat": 45.176167,
    "alt": 877,
    "postePublic": true
  },
  {
    "id": "38158001",
    "nom": "GRENOBLE-EYBENS",
    "posteOuvert": false,
    "typePoste": 0,
    "lon": 5.733333,
    "lat": 45.166667,
    "alt": 223,
    "postePublic": true
  },
  {
    "id": "38162001",
    "nom": "FAVERGES",
    "posteOuvert": true,
    "typePoste": 2,
    "lon": 5.528833,
    "lat": 45.594667,
    "alt": 367,
    "postePublic": true
  },
  {
    "id": "38185012",
    "nom": "GRENOBLE-CEA-RADOME",
    "posteOuvert": true,
    "typePoste": 1,
    "lon": 5.682833,
    "lat": 45.2115,
    "alt": 213,
    "postePublic": true
  },
  {
    "id": "38186001",
    "nom": "GRESSE",
    "posteOuvert": true,
    "typePoste": 2,
    "lon": 5.565667,
    "lat": 44.899833,
    "alt": 1220,
    "postePublic": true
  },
  {
    "id": "38186400",
    "nom": "Gresse en Vercors",
    "posteOuvert": true,
    "typePoste": 4,
    "lon": 5.547167,
    "lat": 44.893167,
    "alt": 1254,
    "postePublic": true
  },
  {
    "id": "38187400",
    "nom": "LE GUA-NIVOSE",
    "posteOuvert": true,
    "typePoste": 3,
    "lon": 5.588667,
    "lat": 45.015,
    "alt": 1646,
    "postePublic": true
  },
  {
    "id": "38191002",
    "nom": "ALPE-D'HUEZ",
    "posteOuvert": true,
    "typePoste": 1,
    "lon": 6.085667,
    "lat": 45.087833,
    "alt": 1860,
    "postePublic": true
  },
  {
    "id": "38191400",
    "nom": "L Alpe d Huez (SATA)",
    "posteOuvert": true,
    "typePoste": 4,
    "lon": 6.072833,
    "lat": 45.097667,
    "alt": 1860,
    "postePublic": true
  },
  {
    "id": "38191408",
    "nom": "L Alpe d Huez 2350",
    "posteOuvert": true,
    "typePoste": 4,
    "lon": 6.0975,
    "lat": 45.105,
    "alt": 2340,
    "postePublic": true
  },
  {
    "id": "38205400",
    "nom": "Lans en Vercors",
    "posteOuvert": true,
    "typePoste": 4,
    "lon": 5.609167,
    "lat": 45.1115,
    "alt": 1400,
    "postePublic": true
  },
  {
    "id": "38207001",
    "nom": "LAVALDENS",
    "posteOuvert": true,
    "typePoste": 2,
    "lon": 5.883333,
    "lat": 44.990667,
    "alt": 1070,
    "postePublic": true
  },
  {
    "id": "38229001",
    "nom": "MEYLAN",
    "posteOuvert": false,
    "typePoste": 2,
    "lon": 5.778333,
    "lat": 45.228833,
    "alt": 469,
    "postePublic": true
  },
  {
    "id": "38253400",
    "nom": "Les 2 Alpes (Toura NE)",
    "posteOuvert": true,
    "typePoste": 4,
    "lon": 6.171833,
    "lat": 44.996667,
    "alt": 2550,
    "postePublic": true
  },
  {
    "id": "38253403",
    "nom": "Les 2 Alpes (Pied Mouttet)",
    "posteOuvert": false,
    "typePoste": 4,
    "lon": 6.106667,
    "lat": 45.009167,
    "alt": 2084,
    "postePublic": true
  },
  {
    "id": "38253404",
    "nom": "Les 2 Alpes (GN)",
    "posteOuvert": false,
    "typePoste": 4,
    "lon": 6.122833,
    "lat": 45.007333,
    "alt": 1630,
    "postePublic": true
  },
  {
    "id": "38253407",
    "nom": "Les 2 ALpes Jandri",
    "posteOuvert": true,
    "typePoste": 4,
    "lon": 6.204667,
    "lat": 44.997,
    "alt": 3200,
    "postePublic": true
  },
  {
    "id": "38264400",
    "nom": "L Alpe du Grand Serre",
    "posteOuvert": true,
    "typePoste": 4,
    "lon": 5.8625,
    "lat": 45.020833,
    "alt": 1382,
    "postePublic": true
  },
  {
    "id": "38269004",
    "nom": "LA MURE- RADOME",
    "posteOuvert": true,
    "typePoste": 1,
    "lon": 5.786167,
    "lat": 44.935,
    "alt": 885,
    "postePublic": true
  },
  {
    "id": "38275002",
    "nom": "SERRE-NERPOL_SAPC",
    "posteOuvert": true,
    "typePoste": 2,
    "lon": 5.353,
    "lat": 45.2845,
    "alt": 632,
    "postePublic": true
  },
  {
    "id": "38285001",
    "nom": "ORNON",
    "posteOuvert": true,
    "typePoste": 2,
    "lon": 5.987333,
    "lat": 45.051667,
    "alt": 950,
    "postePublic": true
  },
  {
    "id": "38289401",
    "nom": "Olmet",
    "posteOuvert": true,
    "typePoste": 4,
    "lon": 6.071667,
    "lat": 45.128167,
    "alt": 1350,
    "postePublic": true
  },
  {
    "id": "38299001",
    "nom": "PELLAFOL-CHANEAUX",
    "posteOuvert": true,
    "typePoste": 2,
    "lon": 5.906167,
    "lat": 44.784167,
    "alt": 947,
    "postePublic": true
  },
  {
    "id": "38315002",
    "nom": "PONT-DE-BEAUVOISIN",
    "posteOuvert": true,
    "typePoste": 2,
    "lon": 5.671333,
    "lat": 45.528333,
    "alt": 284,
    "postePublic": true
  },
  {
    "id": "38336001",
    "nom": "REVENTIN",
    "posteOuvert": true,
    "typePoste": 1,
    "lon": 4.810667,
    "lat": 45.478667,
    "alt": 295,
    "postePublic": true
  },
  {
    "id": "38342001",
    "nom": "ROISSARD",
    "posteOuvert": true,
    "typePoste": 2,
    "lon": 5.6395,
    "lat": 44.882167,
    "alt": 746,
    "postePublic": true
  },
  {
    "id": "38349001",
    "nom": "SABLONS",
    "posteOuvert": true,
    "typePoste": 2,
    "lon": 4.768667,
    "lat": 45.329667,
    "alt": 136,
    "postePublic": true
  },
  {
    "id": "38362001",
    "nom": "ST AUPRE_SAPC",
    "posteOuvert": true,
    "typePoste": 2,
    "lon": 5.657333,
    "lat": 45.392667,
    "alt": 450,
    "postePublic": true
  },
  {
    "id": "38366001",
    "nom": "ST-BAUDILLE",
    "posteOuvert": true,
    "typePoste": 2,
    "lon": 5.796167,
    "lat": 44.796,
    "alt": 1040,
    "postePublic": true
  },
  {
    "id": "38375009",
    "nom": "ST CHRISTOPHE EN OISANS_SAPC",
    "posteOuvert": true,
    "typePoste": 2,
    "lon": 6.188333,
    "lat": 44.945833,
    "alt": 1564,
    "postePublic": true
  },
  {
    "id": "38375400",
    "nom": "St Christophe",
    "posteOuvert": true,
    "typePoste": 4,
    "lon": 6.188333,
    "lat": 44.946667,
    "alt": 1570,
    "postePublic": true
  },
  {
    "id": "38375402",
    "nom": "LES ECRINS-NIVOSE",
    "posteOuvert": true,
    "typePoste": 3,
    "lon": 6.346167,
    "lat": 44.936833,
    "alt": 2970,
    "postePublic": true
  },
  {
    "id": "38375403",
    "nom": "La Berarde",
    "posteOuvert": true,
    "typePoste": 4,
    "lon": 6.292,
    "lat": 44.932667,
    "alt": 1738,
    "postePublic": true
  },
  {
    "id": "38384001",
    "nom": "GRENOBLE-ST GEOIRS",
    "posteOuvert": true,
    "typePoste": 0,
    "lon": 5.313333,
    "lat": 45.364,
    "alt": 384,
    "postePublic": true
  },
  {
    "id": "38395004",
    "nom": "SAINT-HILAIRE_SAPC",
    "posteOuvert": true,
    "typePoste": 2,
    "lon": 5.884833,
    "lat": 45.315,
    "alt": 990,
    "postePublic": true
  },
  {
    "id": "38395400",
    "nom": "St Hilaire",
    "posteOuvert": false,
    "typePoste": 4,
    "lon": 5.883333,
    "lat": 45.308333,
    "alt": 970,
    "postePublic": true
  },
  {
    "id": "38395403",
    "nom": "ST HILAIRE-NIVOSE",
    "posteOuvert": true,
    "typePoste": 3,
    "lon": 5.8635,
    "lat": 45.313833,
    "alt": 1756,
    "postePublic": true
  },
  {
    "id": "38412002",
    "nom": "SAINT LAURENT DU PONT AUTO",
    "posteOuvert": false,
    "typePoste": 2,
    "lon": 5.718,
    "lat": 45.3875,
    "alt": 380,
    "postePublic": true
  },
  {
    "id": "38439400",
    "nom": "COL DU BARIOZ",
    "posteOuvert": false,
    "typePoste": 4,
    "lon": 6.047333,
    "lat": 45.324667,
    "alt": 1424,
    "postePublic": true
  },
  {
    "id": "38442004",
    "nom": "LA SCIA",
    "posteOuvert": false,
    "typePoste": 2,
    "lon": 5.833333,
    "lat": 45.333333,
    "alt": 1700,
    "postePublic": true
  },
  {
    "id": "38442005",
    "nom": "ST-PIERRE-DE-CH",
    "posteOuvert": false,
    "typePoste": 3,
    "lon": 5.816667,
    "lat": 45.343333,
    "alt": 895,
    "postePublic": true
  },
  {
    "id": "38442008",
    "nom": "ST-PIERRE-LES EGAUX",
    "posteOuvert": true,
    "typePoste": 1,
    "lon": 5.803833,
    "lat": 45.317333,
    "alt": 950,
    "postePublic": true
  },
  {
    "id": "38442400",
    "nom": "St Pierre de Chartreuse",
    "posteOuvert": false,
    "typePoste": 4,
    "lon": 5.8465,
    "lat": 45.345,
    "alt": 1700,
    "postePublic": true
  },
  {
    "id": "38446003",
    "nom": "ST-PIERRE-D'ENTREMONT",
    "posteOuvert": true,
    "typePoste": 2,
    "lon": 5.843333,
    "lat": 45.411,
    "alt": 870,
    "postePublic": true
  },
  {
    "id": "38472403",
    "nom": "COL DE PORTE-NIVOSE",
    "posteOuvert": true,
    "typePoste": 3,
    "lon": 5.765333,
    "lat": 45.295,
    "alt": 1325,
    "postePublic": true
  },
  {
    "id": "38501001",
    "nom": "TENCIN",
    "posteOuvert": true,
    "typePoste": 2,
    "lon": 5.951333,
    "lat": 45.300167,
    "alt": 233,
    "postePublic": true
  },
  {
    "id": "38504001",
    "nom": "THEYS",
    "posteOuvert": true,
    "typePoste": 2,
    "lon": 5.995667,
    "lat": 45.302333,
    "alt": 615,
    "postePublic": true
  },
  {
    "id": "38504002",
    "nom": "PIPAY_SAPC",
    "posteOuvert": true,
    "typePoste": 2,
    "lon": 6.016,
    "lat": 45.265333,
    "alt": 1578,
    "postePublic": true
  },
  {
    "id": "38522004",
    "nom": "VALJOUFFREY_SAPC",
    "posteOuvert": true,
    "typePoste": 2,
    "lon": 6.090167,
    "lat": 44.869833,
    "alt": 1285,
    "postePublic": true
  },
  {
    "id": "38524001",
    "nom": "VARCES",
    "posteOuvert": true,
    "typePoste": 2,
    "lon": 5.697667,
    "lat": 45.101167,
    "alt": 253,
    "postePublic": true
  },
  {
    "id": "38527001",
    "nom": "VAUJANY",
    "posteOuvert": true,
    "typePoste": 2,
    "lon": 6.047167,
    "lat": 45.149167,
    "alt": 772,
    "postePublic": true
  },
  {
    "id": "38527400",
    "nom": "VAUJANY-NIVO",
    "posteOuvert": true,
    "typePoste": 4,
    "lon": 6.097667,
    "lat": 45.158833,
    "alt": 1720,
    "postePublic": true
  },
  {
    "id": "38527800",
    "nom": "VAUJANY_DOUBLE",
    "posteOuvert": false,
    "typePoste": 4,
    "lon": 6.047,
    "lat": 45.149167,
    "alt": 772,
    "postePublic": true
  },
  {
    "id": "38538002",
    "nom": "GRENOBLE - LVD",
    "posteOuvert": true,
    "typePoste": 2,
    "lon": 5.8485,
    "lat": 45.217167,
    "alt": 220,
    "postePublic": true
  },
  {
    "id": "38548001",
    "nom": "VILLARD-DE-LANS",
    "posteOuvert": true,
    "typePoste": 1,
    "lon": 5.561,
    "lat": 45.0785,
    "alt": 1027,
    "postePublic": true
  },
  {
    "id": "38548003",
    "nom": "VILLARD-BOIS BARBU",
    "posteOuvert": false,
    "typePoste": 4,
    "lon": 5.542,
    "lat": 45.0715,
    "alt": 1018,
    "postePublic": true
  },
  {
    "id": "38548400",
    "nom": "Villard cote 2000",
    "posteOuvert": true,
    "typePoste": 4,
    "lon": 5.567667,
    "lat": 45.024333,
    "alt": 1710,
    "postePublic": true
  },
  {
    "id": "38548402",
    "nom": "Villard de Lans",
    "posteOuvert": false,
    "typePoste": 4,
    "lon": 5.555333,
    "lat": 45.074833,
    "alt": 1020,
    "postePublic": true
  },
  {
    "id": "38548403",
    "nom": "VILLARD-BOIS-BARBU",
    "posteOuvert": false,
    "typePoste": 4,
    "lon": 5.542,
    "lat": 45.0715,
    "alt": 1018,
    "postePublic": true
  },
  {
    "id": "38567002",
    "nom": "CHAMROUSSE",
    "posteOuvert": true,
    "typePoste": 1,
    "lon": 5.878333,
    "lat": 45.128,
    "alt": 1730,
    "postePublic": true
  },
  {
    "id": "38567400",
    "nom": "CHAMROUSSE ARSELLE",
    "posteOuvert": false,
    "typePoste": 4,
    "lon": 5.876,
    "lat": 45.098667,
    "alt": 1650,
    "postePublic": true
  },
  {
    "id": "38567407",
    "nom": "Chamrousse Niverolles",
    "posteOuvert": true,
    "typePoste": 4,
    "lon": 5.895667,
    "lat": 45.120667,
    "alt": 2022,
    "postePublic": true
  }
]